{"type":"Topology","objects":{"capitals":{"type":"GeometryCollection","geometries":[{"type":"Point","coordinates":[90.24,23.43],"id":"BD","properties":{"country":"Bangladesh","city":"Dhaka","tld":"bd","iso3":"BGD","iso2":"BD","name":"Dhaka"}},{"type":"Point","coordinates":[4.2,50.5],"id":"BE","properties":{"country":"Belgium","city":"Brussels","tld":"be","iso3":"BEL","iso2":"BE","name":"Brussels"}},{"type":"Point","coordinates":[-1.31,12.22],"id":"BF","properties":{"country":"Burkina Faso","city":"Ouagadougou","tld":"bf","iso3":"BFA","iso2":"BF","name":"Ouagadougou"}},{"type":"Point","coordinates":[23.19,42.41],"id":"BG","properties":{"country":"Bulgaria","city":"Sofia","tld":"bg","iso3":"BGR","iso2":"BG","name":"Sofia"}},{"type":"Point","coordinates":[18.25,43.52],"id":"BA","properties":{"country":"Bosnia and Herzegovina","city":"Sarajevo","tld":"ba","iso3":"BIH","iso2":"BA","name":"Sarajevo"}},{"type":"Point","coordinates":[-59.37,13.06],"id":"BB","properties":{"country":"Barbados","city":"Bridgetown","tld":"bb","iso3":"BRB","iso2":"BB","name":"Bridgetown"}},{"type":"Point","coordinates":[-171.56,-13.57],"id":"WF","properties":{"country":"Wallis and Futuna","city":"Mata-Utu","tld":"wf","iso3":"WLF","iso2":"WF","name":"Mata-Utu"}},{"type":"Point","coordinates":[-62.51,17.53],"id":"BL","properties":{"country":"Saint Barthelemy","city":"Gustavia","tld":"bl","iso3":"BLM","iso2":"BL","name":"Gustavia"}},{"type":"Point","coordinates":[-64.47,32.17],"id":"BM","properties":{"country":"Bermuda","city":"Hamilton","tld":"bm","iso3":"BMU","iso2":"BM","name":"Hamilton"}},{"type":"Point","coordinates":[114.56,4.53],"id":"BN","properties":{"country":"Brunei","city":"Bandar Seri Begawan","tld":"bn","iso3":"BRN","iso2":"BN","name":"Bandar Seri Begawan"}},{"type":"Point","coordinates":[-68.09,-16.3],"id":"BO","properties":{"country":"Bolivia","city":"La Paz","tld":"bo","iso3":"BOL","iso2":"BO","name":"La Paz"}},{"type":"Point","coordinates":[50.34,26.14],"id":"BH","properties":{"country":"Bahrain","city":"Manama","tld":"bh","iso3":"BHR","iso2":"BH","name":"Manama"}},{"type":"Point","coordinates":[29.21,-3.22],"id":"BI","properties":{"country":"Burundi","city":"Bujumbura","tld":"bi","iso3":"BDI","iso2":"BI","name":"Bujumbura"}},{"type":"Point","coordinates":[2.37,6.29],"id":"BJ","properties":{"country":"Benin","city":"Porto-Novo","tld":"bj","iso3":"BEN","iso2":"BJ","name":"Porto-Novo"}},{"type":"Point","coordinates":[89.36,27.29],"id":"BT","properties":{"country":"Bhutan","city":"Thimphu","tld":"bt","iso3":"BTN","iso2":"BT","name":"Thimphu"}},{"type":"Point","coordinates":[-76.48,18],"id":"JM","properties":{"country":"Jamaica","city":"Kingston","tld":"jm","iso3":"JAM","iso2":"JM","name":"Kingston"}},{"type":"Point","coordinates":[3.24,-54.26],"id":"BV","properties":{"country":"Bouvet Island","tld":"bv","iso3":"BVT","iso2":"BV"}},{"type":"Point","coordinates":[25.55,-24.45],"id":"BW","properties":{"country":"Botswana","city":"Gaborone","tld":"bw","iso3":"BWA","iso2":"BW","name":"Gaborone"}},{"type":"Point","coordinates":[-171.44,-13.5],"id":"WS","properties":{"country":"Samoa","city":"Apia","tld":"ws","iso3":"WSM","iso2":"WS","name":"Apia"}},{"type":"Point","coordinates":[-47.55,-15.47],"id":"BR","properties":{"country":"Brazil","city":"Brasilia","tld":"br","iso3":"BRA","iso2":"BR","name":"Brasilia"}},{"type":"Point","coordinates":[-77.21,25.05],"id":"BS","properties":{"country":"Bahamas","city":"Nassau","tld":"bs","iso3":"BHS","iso2":"BS","name":"Nassau"}},{"type":"Point","coordinates":[-2.06,49.11],"id":"JE","properties":{"country":"Jersey","city":"Saint Helier","tld":"je","iso3":"JEY","iso2":"JE","name":"Saint Helier"}},{"type":"Point","coordinates":[27.34,53.54],"id":"BY","properties":{"country":"Belarus","city":"Minsk","tld":"by","iso3":"BLR","iso2":"BY","name":"Minsk"}},{"type":"Point","coordinates":[-88.46,17.15],"id":"BZ","properties":{"country":"Belize","city":"Belmopan","tld":"bz","iso3":"BLZ","iso2":"BZ","name":"Belmopan"}},{"type":"Point","coordinates":[37.35,55.45],"id":"RU","properties":{"country":"Russia","city":"Moscow","tld":"ru","iso3":"RUS","iso2":"RU","name":"Moscow"}},{"type":"Point","coordinates":[30.04,-1.57],"id":"RW","properties":{"country":"Rwanda","city":"Kigali","tld":"rw","iso3":"RWA","iso2":"RW","name":"Kigali"}},{"type":"Point","coordinates":[20.3,44.5],"id":"RS","properties":{"country":"Serbia","city":"Belgrade","tld":"rs","iso3":"SRB","iso2":"RS","name":"Belgrade"}},{"type":"Point","coordinates":[125.36,-8.35],"id":"TL","properties":{"country":"Timor-Leste","city":"Dili","tld":"tl","iso3":"TLS","iso2":"TL","name":"Dili"}},{"type":"Point","coordinates":[58.23,37.57],"id":"TM","properties":{"country":"Turkmenistan","city":"Ashgabat","tld":"tm","iso3":"TKM","iso2":"TM","name":"Ashgabat"}},{"type":"Point","coordinates":[68.48,38.35],"id":"TJ","properties":{"country":"Tajikistan","city":"Dushanbe","tld":"tj","iso3":"TJK","iso2":"TJ","name":"Dushanbe"}},{"type":"Point","coordinates":[26.06,44.26],"id":"RO","properties":{"country":"Romania","city":"Bucharest","tld":"ro","iso3":"ROU","iso2":"RO","name":"Bucharest"}},{"type":"Point","coordinates":[-172,-9],"id":"TK","properties":{"country":"Tokelau","tld":"tk","iso3":"TKL","iso2":"TK"}},{"type":"Point","coordinates":[-15.35,11.51],"id":"GW","properties":{"country":"Guinea-Bissau","city":"Bissau","tld":"gw","iso3":"GNB","iso2":"GW","name":"Bissau"}},{"type":"Point","coordinates":[144.44,13.28],"id":"GU","properties":{"country":"Guam","city":"Hagatna","tld":"gu","iso3":"GUM","iso2":"GU","name":"Hagatna"}},{"type":"Point","coordinates":[-90.31,14.37],"id":"GT","properties":{"country":"Guatemala","city":"Guatemala City","tld":"gt","iso3":"GTM","iso2":"GT","name":"Guatemala City"}},{"type":"Point","coordinates":[23.44,37.59],"id":"GR","properties":{"country":"Greece","city":"Athens","tld":"gr","iso3":"GRC","iso2":"GR","name":"Athens"}},{"type":"Point","coordinates":[8.47,3.45],"id":"GQ","properties":{"country":"Equatorial Guinea","city":"Malabo","tld":"gq","iso3":"GNQ","iso2":"GQ","name":"Malabo"}},{"type":"Point","coordinates":[139.45,35.41],"id":"JP","properties":{"country":"Japan","city":"Tokyo","tld":"jp","iso3":"JPN","iso2":"JP","name":"Tokyo"}},{"type":"Point","coordinates":[-58.1,6.48],"id":"GY","properties":{"country":"Guyana","city":"Georgetown","tld":"gy","iso3":"GUY","iso2":"GY","name":"Georgetown"}},{"type":"Point","coordinates":[-2.32,49.27],"id":"GG","properties":{"country":"Guernsey","city":"Saint Peter Port","tld":"gg","iso3":"GGY","iso2":"GG","name":"Saint Peter Port"}},{"type":"Point","coordinates":[44.47,41.43],"id":"GE","properties":{"country":"Georgia","city":"T'bilisi","tld":"ge","iso3":"GEO","iso2":"GE","name":"T'bilisi"}},{"type":"Point","coordinates":[-61.45,12.03],"id":"GD","properties":{"country":"Grenada","city":"Saint George's","tld":"gd","iso3":"GRD","iso2":"GD","name":"Saint George's"}},{"type":"Point","coordinates":[-0.1,51.3],"id":"GB","properties":{"country":"United Kingdom","city":"London","tld":"uk","iso3":"GBR","iso2":"GB","name":"London"}},{"type":"Point","coordinates":[9.27,0.23],"id":"GA","properties":{"country":"Gabon","city":"Libreville","tld":"ga","iso3":"GAB","iso2":"GA","name":"Libreville"}},{"type":"Point","coordinates":[-89.12,13.42],"id":"SV","properties":{"country":"El Salvador","city":"San Salvador","tld":"sv","iso3":"SLV","iso2":"SV","name":"San Salvador"}},{"type":"Point","coordinates":[-13.42,9.33],"id":"GN","properties":{"country":"Guinea","city":"Conakry","tld":"gn","iso3":"GIN","iso2":"GN","name":"Conakry"}},{"type":"Point","coordinates":[-16.34,13.27],"id":"GM","properties":{"country":"Gambia","city":"Banjul","tld":"gm","iso3":"GMB","iso2":"GM","name":"Banjul"}},{"type":"Point","coordinates":[-51.45,64.11],"id":"GL","properties":{"country":"Greenland","city":"Nuuk","tld":"gl","iso3":"GRL","iso2":"GL","name":"Nuuk"}},{"type":"Point","coordinates":[-5.21,36.08],"id":"GI","properties":{"country":"Gibraltar","city":"Gibraltar","tld":"gi","iso3":"GIB","iso2":"GI","name":"Gibraltar"}},{"type":"Point","coordinates":[-0.13,5.33],"id":"GH","properties":{"country":"Ghana","city":"Accra","tld":"gh","iso3":"GHA","iso2":"GH","name":"Accra"}},{"type":"Point","coordinates":[58.35,23.37],"id":"OM","properties":{"country":"Oman","city":"Muscat","tld":"om","iso3":"OMN","iso2":"OM","name":"Muscat"}},{"type":"Point","coordinates":[10.11,36.48],"id":"TN","properties":{"country":"Tunisia","city":"Tunis","tld":"tn","iso3":"TUN","iso2":"TN","name":"Tunis"}},{"type":"Point","coordinates":[35.56,31.57],"id":"JO","properties":{"country":"Jordan","city":"Amman","tld":"jo","iso3":"JOR","iso2":"JO","name":"Amman"}},{"type":"Point","coordinates":[16,45.48],"id":"HR","properties":{"country":"Croatia","city":"Zagreb","tld":"hr","iso3":"HRV","iso2":"HR","name":"Zagreb"}},{"type":"Point","coordinates":[-72.2,18.32],"id":"HT","properties":{"country":"Haiti","city":"Port-au-Prince","tld":"ht","iso3":"HTI","iso2":"HT","name":"Port-au-Prince"}},{"type":"Point","coordinates":[19.05,47.3],"id":"HU","properties":{"country":"Hungary","city":"Budapest","tld":"hu","iso3":"HUN","iso2":"HU","name":"Budapest"}},{"type":"Point","coordinates":[114.1,22.15],"id":"HK","properties":{"country":"Hong Kong","city":"Hong Kong","tld":"hk","iso3":"HKG","iso2":"HK","name":"Hong Kong"}},{"type":"Point","coordinates":[-87.13,14.06],"id":"HN","properties":{"country":"Honduras","city":"Tegucigalpa","tld":"hn","iso3":"HND","iso2":"HN","name":"Tegucigalpa"}},{"type":"Point","coordinates":[72.31,-53.06],"id":"HM","properties":{"country":"Heard Island and McDonald Islands","tld":"hm","iso3":"HMD","iso2":"HM"}},{"type":"Point","coordinates":[-66.56,10.3],"id":"VE","properties":{"country":"Venezuela","city":"Caracas","tld":"ve","iso3":"VEN","iso2":"VE","name":"Caracas"}},{"type":"Point","coordinates":[-66.07,18.28],"id":"PR","properties":{"country":"Puerto Rico","city":"San Juan","tld":"pr","iso3":"PRI","iso2":"PR","name":"San Juan"}},{"type":"Point","coordinates":[34.2,31.25],"id":"PS","properties":{"country":"Palestinian Territory","tld":"ps","iso3":"PSE","iso2":"PS"}},{"type":"Point","coordinates":[134.38,7.29],"id":"PW","properties":{"country":"Palau","city":"Melekeok","tld":"pw","iso3":"PLW","iso2":"PW","name":"Melekeok"}},{"type":"Point","coordinates":[-9.08,38.43],"id":"PT","properties":{"country":"Portugal","city":"Lisbon","tld":"pt","iso3":"PRT","iso2":"PT","name":"Lisbon"}},{"type":"Point","coordinates":[15.33,78.13],"id":"SJ","properties":{"country":"Svalbard","city":"Longyearbyen","tld":"sj","iso3":"SJM","iso2":"SJ","name":"Longyearbyen"}},{"type":"Point","coordinates":[-57.4,-25.16],"id":"PY","properties":{"country":"Paraguay","city":"Asuncion","tld":"py","iso3":"PRY","iso2":"PY","name":"Asuncion"}},{"type":"Point","coordinates":[44.23,33.2],"id":"IQ","properties":{"country":"Iraq","city":"Baghdad","tld":"iq","iso3":"IRQ","iso2":"IQ","name":"Baghdad"}},{"type":"Point","coordinates":[-79.32,8.58],"id":"PA","properties":{"country":"Panama","city":"Panama City","tld":"pa","iso3":"PAN","iso2":"PA","name":"Panama City"}},{"type":"Point","coordinates":[-149.34,-17.32],"id":"PF","properties":{"country":"French Polynesia","city":"Papeete","tld":"pf","iso3":"PYF","iso2":"PF","name":"Papeete"}},{"type":"Point","coordinates":[147.1,-9.3],"id":"PG","properties":{"country":"Papua New Guinea","city":"Port Moresby","tld":"pg","iso3":"PNG","iso2":"PG","name":"Port Moresby"}},{"type":"Point","coordinates":[-77.03,-12.03],"id":"PE","properties":{"country":"Peru","city":"Lima","tld":"pe","iso3":"PER","iso2":"PE","name":"Lima"}},{"type":"Point","coordinates":[73.1,33.42],"id":"PK","properties":{"country":"Pakistan","city":"Islamabad","tld":"pk","iso3":"PAK","iso2":"PK","name":"Islamabad"}},{"type":"Point","coordinates":[121,14.35],"id":"PH","properties":{"country":"Philippines","city":"Manila","tld":"ph","iso3":"PHL","iso2":"PH","name":"Manila"}},{"type":"Point","coordinates":[-130.05,-25.04],"id":"PN","properties":{"country":"Pitcairn","city":"Adamstown","tld":"pn","iso3":"PCN","iso2":"PN","name":"Adamstown"}},{"type":"Point","coordinates":[21,52.15],"id":"PL","properties":{"country":"Poland","city":"Warsaw","tld":"pl","iso3":"POL","iso2":"PL","name":"Warsaw"}},{"type":"Point","coordinates":[-56.11,46.46],"id":"PM","properties":{"country":"Saint Pierre and Miquelon","city":"Saint-Pierre","tld":"pm","iso3":"SPM","iso2":"PM","name":"Saint-Pierre"}},{"type":"Point","coordinates":[28.17,-15.25],"id":"ZM","properties":{"country":"Zambia","city":"Lusaka","tld":"zm","iso3":"ZMB","iso2":"ZM","name":"Lusaka"}},{"type":"Point","coordinates":[-13,24.3],"id":"EH","properties":{"country":"Western Sahara","tld":"eh","iso3":"ESH","iso2":"EH"}},{"type":"Point","coordinates":[24.43,59.26],"id":"EE","properties":{"country":"Estonia","city":"Tallinn","tld":"ee","iso3":"EST","iso2":"EE","name":"Tallinn"}},{"type":"Point","coordinates":[31.15,30.03],"id":"EG","properties":{"country":"Egypt","city":"Cairo","tld":"eg","iso3":"EGY","iso2":"EG","name":"Cairo"}},{"type":"Point","coordinates":[28.13,-25.42],"id":"ZA","properties":{"country":"South Africa","city":"Pretoria","tld":"za","iso3":"ZAF","iso2":"ZA","name":"Pretoria"}},{"type":"Point","coordinates":[-78.3,-0.13],"id":"EC","properties":{"country":"Ecuador","city":"Quito","tld":"ec","iso3":"ECU","iso2":"EC","name":"Quito"}},{"type":"Point","coordinates":[12.29,41.54],"id":"IT","properties":{"country":"Italy","city":"Rome","tld":"it","iso3":"ITA","iso2":"IT","name":"Rome"}},{"type":"Point","coordinates":[105.51,21.02],"id":"VN","properties":{"country":"Vietnam","city":"Hanoi","tld":"vn","iso3":"VNM","iso2":"VN","name":"Hanoi"}},{"type":"Point","coordinates":[159.57,-9.26],"id":"SB","properties":{"country":"Solomon Islands","city":"Honiara","tld":"sb","iso3":"SLB","iso2":"SB","name":"Honiara"}},{"type":"Point","coordinates":[9.9,50.1021],"id":"EU","properties":{"country":"European Union","tld":"eu","iso3":"N/A","iso2":"EU"}},{"type":"Point","coordinates":[38.42,9.02],"id":"ET","properties":{"country":"Ethiopia","city":"Addis Ababa","tld":"et","iso3":"ETH","iso2":"ET","name":"Addis Ababa"}},{"type":"Point","coordinates":[45.22,2.04],"id":"SO","properties":{"country":"Somalia","city":"Mogadishu","tld":"so","iso3":"SOM","iso2":"SO","name":"Mogadishu"}},{"type":"Point","coordinates":[31.03,-17.5],"id":"ZW","properties":{"country":"Zimbabwe","city":"Harare","tld":"zw","iso3":"ZWE","iso2":"ZW","name":"Harare"}},{"type":"Point","coordinates":[46.43,24.38],"id":"SA","properties":{"country":"Saudi Arabia","city":"Riyadh","tld":"sa","iso3":"SAU","iso2":"SA","name":"Riyadh"}},{"type":"Point","coordinates":[-3.41,40.24],"id":"ES","properties":{"country":"Spain","city":"Madrid","tld":"es","iso3":"ESP","iso2":"ES","name":"Madrid"}},{"type":"Point","coordinates":[38.56,15.2],"id":"ER","properties":{"country":"Eritrea","city":"Asmara","tld":"er","iso3":"ERI","iso2":"ER","name":"Asmara"}},{"type":"Point","coordinates":[19.16,42.26],"id":"ME","properties":{"country":"Montenegro","city":"Podgorica","tld":"me","iso3":"MNE","iso2":"ME","name":"Podgorica"}},{"type":"Point","coordinates":[28.51,47],"id":"MD","properties":{"country":"Moldova","city":"Chisinau","tld":"md","iso3":"MDA","iso2":"MD","name":"Chisinau"}},{"type":"Point","coordinates":[47.31,-18.55],"id":"MG","properties":{"country":"Madagascar","city":"Antananarivo","tld":"mg","iso3":"MDG","iso2":"MG","name":"Antananarivo"}},{"type":"Point","coordinates":[-63.05,18.04],"id":"MF","properties":{"country":"Saint Martin","city":"Marigot","tld":"mf","iso3":"MAF","iso2":"MF","name":"Marigot"}},{"type":"Point","coordinates":[-6.49,34.01],"id":"MA","properties":{"country":"Morocco","city":"Rabat","tld":"ma","iso3":"MAR","iso2":"MA","name":"Rabat"}},{"type":"Point","coordinates":[7.25,43.44],"id":"MC","properties":{"country":"Monaco","city":"Monaco","tld":"mc","iso3":"MCO","iso2":"MC","name":"Monaco"}},{"type":"Point","coordinates":[69.18,41.2],"id":"UZ","properties":{"country":"Uzbekistan","city":"Tashkent","tld":"uz","iso3":"UZB","iso2":"UZ","name":"Tashkent"}},{"type":"Point","coordinates":[96.09,16.48],"id":"MM","properties":{"country":"Myanmar","city":"Rangoon","tld":"mm","iso3":"MMR","iso2":"MM","name":"Rangoon"}},{"type":"Point","coordinates":[-8,12.39],"id":"ML","properties":{"country":"Mali","city":"Bamako","tld":"ml","iso3":"MLI","iso2":"ML","name":"Bamako"}},{"type":"Point","coordinates":[113.33,22.1],"id":"MO","properties":{"country":"Macao","tld":"mo","iso3":"MAC","iso2":"MO"}},{"type":"Point","coordinates":[106.55,47.55],"id":"MN","properties":{"country":"Mongolia","city":"Ulaanbaatar","tld":"mn","iso3":"MNG","iso2":"MN","name":"Ulaanbaatar"}},{"type":"Point","coordinates":[171.23,7.06],"id":"MH","properties":{"country":"Marshall Islands","city":"Majuro","tld":"mh","iso3":"MHL","iso2":"MH","name":"Majuro"}},{"type":"Point","coordinates":[21.26,42],"id":"MK","properties":{"country":"Macedonia","city":"Skopje","tld":"mk","iso3":"MKD","iso2":"MK","name":"Skopje"}},{"type":"Point","coordinates":[57.29,-20.09],"id":"MU","properties":{"country":"Mauritius","city":"Port Louis","tld":"mu","iso3":"MUS","iso2":"MU","name":"Port Louis"}},{"type":"Point","coordinates":[14.3,35.53],"id":"MT","properties":{"country":"Malta","city":"Valletta","tld":"mt","iso3":"MLT","iso2":"MT","name":"Valletta"}},{"type":"Point","coordinates":[33.47,-13.59],"id":"MW","properties":{"country":"Malawi","city":"Lilongwe","tld":"mw","iso3":"MWI","iso2":"MW","name":"Lilongwe"}},{"type":"Point","coordinates":[73.3,4.1],"id":"MV","properties":{"country":"Maldives","city":"Male","tld":"mv","iso3":"MDV","iso2":"MV","name":"Male"}},{"type":"Point","coordinates":[145.45,15.12],"id":"MP","properties":{"country":"Northern Mariana Islands","city":"Saipan","tld":"mp","iso3":"MNP","iso2":"MP","name":"Saipan"}},{"type":"Point","coordinates":[-62.13,16.42],"id":"MS","properties":{"country":"Montserrat","city":"Plymouth","tld":"ms","iso3":"MSR","iso2":"MS","name":"Plymouth"}},{"type":"Point","coordinates":[-16.02,18.07],"id":"MR","properties":{"country":"Mauritania","city":"Nouakchott","tld":"mr","iso3":"MRT","iso2":"MR","name":"Nouakchott"}},{"type":"Point","coordinates":[-4.29,54.09],"id":"IM","properties":{"country":"Isle of Man","city":"Douglas","tld":"im","iso3":"IMN","iso2":"IM","name":"Douglas"}},{"type":"Point","coordinates":[32.25,0.19],"id":"UG","properties":{"country":"Uganda","city":"Kampala","tld":"ug","iso3":"UGA","iso2":"UG","name":"Kampala"}},{"type":"Point","coordinates":[101.42,3.1],"id":"MY","properties":{"country":"Malaysia","city":"Kuala Lumpur","tld":"my","iso3":"MYS","iso2":"MY","name":"Kuala Lumpur"}},{"type":"Point","coordinates":[-99.08,19.26],"id":"MX","properties":{"country":"Mexico","city":"Mexico City","tld":"mx","iso3":"MEX","iso2":"MX","name":"Mexico City"}},{"type":"Point","coordinates":[35.14,31.46],"id":"IL","properties":{"country":"Israel","city":"Jerusalem","tld":"il","iso3":"ISR","iso2":"IL","name":"Jerusalem"}},{"type":"Point","coordinates":[2.2,48.52],"id":"FR","properties":{"country":"France","city":"Paris","tld":"fr","iso3":"FRA","iso2":"FR","name":"Paris"}},{"type":"Point","coordinates":[71.3,-6],"id":"IO","properties":{"country":"British Indian Ocean Territory","tld":"io","iso3":"IOT","iso2":"IO"}},{"type":"Point","coordinates":[-5.44,-15.56],"id":"SH","properties":{"country":"Saint Helena Ascension and Tristan da Cunha","city":"Jamestown","tld":"sh","iso3":"SHN","iso2":"SH","name":"Jamestown"}},{"type":"Point","coordinates":[24.56,60.1],"id":"FI","properties":{"country":"Finland","city":"Helsinki","tld":"fi","iso3":"FIN","iso2":"FI","name":"Helsinki"}},{"type":"Point","coordinates":[178.25,-18.08],"id":"FJ","properties":{"country":"Fiji","city":"Suva","tld":"fj","iso3":"FJI","iso2":"FJ","name":"Suva"}},{"type":"Point","coordinates":[-57.51,-51.42],"id":"FK","properties":{"country":"Falkland Islands","city":"Stanley","tld":"fk","iso3":"FLK","iso2":"FK","name":"Stanley"}},{"type":"Point","coordinates":[158.09,6.55],"id":"FM","properties":{"country":"Micronesia","city":"Palikir","tld":"fm","iso3":"FSM","iso2":"FM","name":"Palikir"}},{"type":"Point","coordinates":[-6.46,62.01],"id":"FO","properties":{"country":"Faroe Islands","city":"Torshavn","tld":"fo","iso3":"FRO","iso2":"FO","name":"Torshavn"}},{"type":"Point","coordinates":[-86.17,12.09],"id":"NI","properties":{"country":"Nicaragua","city":"Managua","tld":"ni","iso3":"NIC","iso2":"NI","name":"Managua"}},{"type":"Point","coordinates":[4.54,52.23],"id":"NL","properties":{"country":"Netherlands","city":"Amsterdam","tld":"nl","iso3":"NLD","iso2":"NL","name":"Amsterdam"}},{"type":"Point","coordinates":[10.45,59.55],"id":"NO","properties":{"country":"Norway","city":"Oslo","tld":"no","iso3":"NOR","iso2":"NO","name":"Oslo"}},{"type":"Point","coordinates":[17.05,-22.34],"id":"NA","properties":{"country":"Namibia","city":"Windhoek","tld":"na","iso3":"NAM","iso2":"NA","name":"Windhoek"}},{"type":"Point","coordinates":[168.19,-17.44],"id":"VU","properties":{"country":"Vanuatu","city":"Port-Vila","tld":"vu","iso3":"VUT","iso2":"VU","name":"Port-Vila"}},{"type":"Point","coordinates":[166.27,-22.16],"id":"NC","properties":{"country":"New Caledonia","city":"Noumea","tld":"nc","iso3":"NCL","iso2":"NC","name":"Noumea"}},{"type":"Point","coordinates":[2.07,13.31],"id":"NE","properties":{"country":"Niger","city":"Niamey","tld":"ne","iso3":"NER","iso2":"NE","name":"Niamey"}},{"type":"Point","coordinates":[167.58,-29.03],"id":"NF","properties":{"country":"Norfolk Island","city":"Kingston","tld":"nf","iso3":"NFK","iso2":"NF","name":"Kingston"}},{"type":"Point","coordinates":[7.32,9.05],"id":"NG","properties":{"country":"Nigeria","city":"Abuja","tld":"ng","iso3":"NGA","iso2":"NG","name":"Abuja"}},{"type":"Point","coordinates":[174.51,-41.28],"id":"NZ","properties":{"country":"New Zealand","city":"Wellington","tld":"nz","iso3":"NZL","iso2":"NZ","name":"Wellington"}},{"type":"Point","coordinates":[85.19,27.43],"id":"NP","properties":{"country":"Nepal","city":"Kathmandu","tld":"np","iso3":"NPL","iso2":"NP","name":"Kathmandu"}},{"type":"Point","coordinates":[166.55,-0.32],"id":"NR","properties":{"country":"Nauru","tld":"nr","iso3":"NRU","iso2":"NR"}},{"type":"Point","coordinates":[-169.55,-19.01],"id":"NU","properties":{"country":"Niue","city":"Alofi","tld":"nu","iso3":"NIU","iso2":"NU","name":"Alofi"}},{"type":"Point","coordinates":[-159.46,-21.12],"id":"CK","properties":{"country":"Cook Islands","city":"Avarua","tld":"ck","iso3":"COK","iso2":"CK","name":"Avarua"}},{"type":"Point","coordinates":[-5.17,6.49],"id":"CI","properties":{"country":"Ivory Coast","city":"Yamoussoukro","tld":"ci","iso3":"CIV","iso2":"CI","name":"Yamoussoukro"}},{"type":"Point","coordinates":[7.26,46.57],"id":"CH","properties":{"country":"Switzerland","city":"Bern","tld":"ch","iso3":"CHE","iso2":"CH","name":"Bern"}},{"type":"Point","coordinates":[-74.05,4.36],"id":"CO","properties":{"country":"Colombia","city":"Bogota","tld":"co","iso3":"COL","iso2":"CO","name":"Bogota"}},{"type":"Point","coordinates":[116.23,39.55],"id":"CN","properties":{"country":"China","city":"Beijing","tld":"cn","iso3":"CHN","iso2":"CN","name":"Beijing"}},{"type":"Point","coordinates":[11.31,3.52],"id":"CM","properties":{"country":"Cameroon","city":"Yaounde","tld":"cm","iso3":"CMR","iso2":"CM","name":"Yaounde"}},{"type":"Point","coordinates":[-70.4,-33.27],"id":"CL","properties":{"country":"Chile","city":"Santiago","tld":"cl","iso3":"CHL","iso2":"CL","name":"Santiago"}},{"type":"Point","coordinates":[96.5,-12.1],"id":"CC","properties":{"country":"Cocos Islands","city":"West Island","tld":"cc","iso3":"CCK","iso2":"CC","name":"West Island"}},{"type":"Point","coordinates":[-75.42,45.25],"id":"CA","properties":{"country":"Canada","city":"Ottawa","tld":"ca","iso3":"CAN","iso2":"CA","name":"Ottawa"}},{"type":"Point","coordinates":[15.17,-4.15],"id":"CG","properties":{"country":"Congo Republic","city":"Brazzaville","tld":"cg","iso3":"COG","iso2":"CG","name":"Brazzaville"}},{"type":"Point","coordinates":[18.35,4.22],"id":"CF","properties":{"country":"Central African Republic","city":"Bangui","tld":"cf","iso3":"CAF","iso2":"CF","name":"Bangui"}},{"type":"Point","coordinates":[15.18,-4.19],"id":"CD","properties":{"country":"Congo Democratic Republic","city":"Kinshasa","tld":"cd","iso3":"COD","iso2":"CD","name":"Kinshasa"}},{"type":"Point","coordinates":[14.28,50.05],"id":"CZ","properties":{"country":"Czech Republic","city":"Prague","tld":"cz","iso3":"CZE","iso2":"CZ","name":"Prague"}},{"type":"Point","coordinates":[33.22,35.1],"id":"CY","properties":{"country":"Cyprus","city":"Nicosia","tld":"cy","iso3":"CYP","iso2":"CY","name":"Nicosia"}},{"type":"Point","coordinates":[105.43,-10.25],"id":"CX","properties":{"country":"Christmas Island","city":"The Settlement","tld":"cx","iso3":"CXR","iso2":"CX","name":"The Settlement"}},{"type":"Point","coordinates":[-84.05,9.56],"id":"CR","properties":{"country":"Costa Rica","city":"San Jose","tld":"cr","iso3":"CRI","iso2":"CR","name":"San Jose"}},{"type":"Point","coordinates":[-23.31,14.55],"id":"CV","properties":{"country":"Cape Verde","city":"Praia","tld":"cv","iso3":"CPV","iso2":"CV","name":"Praia"}},{"type":"Point","coordinates":[-82.21,23.07],"id":"CU","properties":{"country":"Cuba","city":"Havana","tld":"cu","iso3":"CUB","iso2":"CU","name":"Havana"}},{"type":"Point","coordinates":[31.06,-26.18],"id":"SZ","properties":{"country":"Swaziland","city":"Mbabane","tld":"sz","iso3":"SWZ","iso2":"SZ","name":"Mbabane"}},{"type":"Point","coordinates":[36.18,33.3],"id":"SY","properties":{"country":"Syria","city":"Damascus","tld":"sy","iso3":"SYR","iso2":"SY","name":"Damascus"}},{"type":"Point","coordinates":[74.36,42.52],"id":"KG","properties":{"country":"Kyrgyzstan","city":"Bishkek","tld":"kg","iso3":"KGZ","iso2":"KG","name":"Bishkek"}},{"type":"Point","coordinates":[36.49,-1.17],"id":"KE","properties":{"country":"Kenya","city":"Nairobi","tld":"ke","iso3":"KEN","iso2":"KE","name":"Nairobi"}},{"type":"Point","coordinates":[-55.1,5.5],"id":"SR","properties":{"country":"Suriname","city":"Paramaribo","tld":"sr","iso3":"SUR","iso2":"SR","name":"Paramaribo"}},{"type":"Point","coordinates":[172.58,1.19],"id":"KI","properties":{"country":"Kiribati","city":"Tarawa","tld":"ki","iso3":"KIR","iso2":"KI","name":"Tarawa"}},{"type":"Point","coordinates":[104.55,11.33],"id":"KH","properties":{"country":"Cambodia","city":"Phnom Penh","tld":"kh","iso3":"KHM","iso2":"KH","name":"Phnom Penh"}},{"type":"Point","coordinates":[-62.43,17.18],"id":"KN","properties":{"country":"Saint Kitts and Nevis","city":"Basseterre","tld":"kn","iso3":"KNA","iso2":"KN","name":"Basseterre"}},{"type":"Point","coordinates":[43.14,-11.42],"id":"KM","properties":{"country":"Comoros","city":"Moroni","tld":"km","iso3":"COM","iso2":"KM","name":"Moroni"}},{"type":"Point","coordinates":[6.39,0.12],"id":"ST","properties":{"country":"Sao Tome and Principe","city":"Sao Tome","tld":"st","iso3":"STP","iso2":"ST","name":"Sao Tome"}},{"type":"Point","coordinates":[17.07,48.09],"id":"SK","properties":{"country":"Slovakia","city":"Bratislava","tld":"sk","iso3":"SVK","iso2":"SK","name":"Bratislava"}},{"type":"Point","coordinates":[126.59,37.33],"id":"KR","properties":{"country":"Korea South","city":"Seoul","tld":"kr","iso3":"KOR","iso2":"KR","name":"Seoul"}},{"type":"Point","coordinates":[14.31,46.03],"id":"SI","properties":{"country":"Slovenia","city":"Ljubljana","tld":"si","iso3":"SVN","iso2":"SI","name":"Ljubljana"}},{"type":"Point","coordinates":[125.45,39.01],"id":"KP","properties":{"country":"Korea North","city":"Pyongyang","tld":"kp","iso3":"PRK","iso2":"KP","name":"Pyongyang"}},{"type":"Point","coordinates":[47.58,29.22],"id":"KW","properties":{"country":"Kuwait","city":"Kuwait City","tld":"kw","iso3":"KWT","iso2":"KW","name":"Kuwait City"}},{"type":"Point","coordinates":[-17.26,14.4],"id":"SN","properties":{"country":"Senegal","city":"Dakar","tld":"sn","iso3":"SEN","iso2":"SN","name":"Dakar"}},{"type":"Point","coordinates":[12.25,43.56],"id":"SM","properties":{"country":"San Marino","city":"San Marino","tld":"sm","iso3":"SMR","iso2":"SM","name":"San Marino"}},{"type":"Point","coordinates":[-13.15,8.3],"id":"SL","properties":{"country":"Sierra Leone","city":"Freetown","tld":"sl","iso3":"SLE","iso2":"SL","name":"Freetown"}},{"type":"Point","coordinates":[55.27,-4.38],"id":"SC","properties":{"country":"Seychelles","city":"Victoria","tld":"sc","iso3":"SYC","iso2":"SC","name":"Victoria"}},{"type":"Point","coordinates":[71.25,51.1],"id":"KZ","properties":{"country":"Kazakhstan","city":"Astana","tld":"kz","iso3":"KAZ","iso2":"KZ","name":"Astana"}},{"type":"Point","coordinates":[-81.23,19.18],"id":"KY","properties":{"country":"Cayman Islands","city":"George Town","tld":"ky","iso3":"CYM","iso2":"KY","name":"George Town"}},{"type":"Point","coordinates":[103.51,1.17],"id":"SG","properties":{"country":"Singapore","city":"Singapore","tld":"sg","iso3":"SGP","iso2":"SG","name":"Singapore"}},{"type":"Point","coordinates":[18.03,59.2],"id":"SE","properties":{"country":"Sweden","city":"Stockholm","tld":"se","iso3":"SWE","iso2":"SE","name":"Stockholm"}},{"type":"Point","coordinates":[32.32,15.36],"id":"SD","properties":{"country":"Sudan","city":"Khartoum","tld":"sd","iso3":"SDN","iso2":"SD","name":"Khartoum"}},{"type":"Point","coordinates":[-69.54,18.28],"id":"DO","properties":{"country":"Dominican Republic","city":"Santo Domingo","tld":"do","iso3":"DOM","iso2":"DO","name":"Santo Domingo"}},{"type":"Point","coordinates":[-61.24,15.18],"id":"DM","properties":{"country":"Dominica","city":"Roseau","tld":"dm","iso3":"DMA","iso2":"DM","name":"Roseau"}},{"type":"Point","coordinates":[43.09,11.35],"id":"DJ","properties":{"country":"Djibouti","city":"Djibouti","tld":"dj","iso3":"DJI","iso2":"DJ","name":"Djibouti"}},{"type":"Point","coordinates":[12.35,55.4],"id":"DK","properties":{"country":"Denmark","city":"Copenhagen","tld":"dk","iso3":"DNK","iso2":"DK","name":"Copenhagen"}},{"type":"Point","coordinates":[-64.37,18.27],"id":"VG","properties":{"country":"British Virgin Islands","city":"Road Town","tld":"vg","iso3":"VGB","iso2":"VG","name":"Road Town"}},{"type":"Point","coordinates":[13.24,52.31],"id":"DE","properties":{"country":"Germany","city":"Berlin","tld":"de","iso3":"DEU","iso2":"DE","name":"Berlin"}},{"type":"Point","coordinates":[44.12,15.21],"id":"YE","properties":{"country":"Yemen","city":"Sanaa","tld":"ye","iso3":"YEM","iso2":"YE","name":"Sanaa"}},{"type":"Point","coordinates":[3.03,36.45],"id":"DZ","properties":{"country":"Algeria","city":"Algiers","tld":"dz","iso3":"DZA","iso2":"DZ","name":"Algiers"}},{"type":"Point","coordinates":[-77.02,38.53],"id":"US","properties":{"country":"United States","city":"Washington, DC","tld":"us","iso3":"USA","iso2":"US","name":"Washington, DC"}},{"type":"Point","coordinates":[-56.11,-34.53],"id":"UY","properties":{"country":"Uruguay","city":"Montevideo","tld":"uy","iso3":"URY","iso2":"UY","name":"Montevideo"}},{"type":"Point","coordinates":[45.13,-12.46],"id":"YT","properties":{"country":"Mayotte","city":"Mamoudzou","tld":"yt","iso3":"MYT","iso2":"YT","name":"Mamoudzou"}},{"type":"Point","coordinates":[35.3,33.52],"id":"LB","properties":{"country":"Lebanon","city":"Beirut","tld":"lb","iso3":"LBN","iso2":"LB","name":"Beirut"}},{"type":"Point","coordinates":[-61,14.01],"id":"LC","properties":{"country":"Saint Lucia","city":"Castries","tld":"lc","iso3":"LCA","iso2":"LC","name":"Castries"}},{"type":"Point","coordinates":[102.36,17.58],"id":"LA","properties":{"country":"Laos","city":"Vientiane","tld":"la","iso3":"LAO","iso2":"LA","name":"Vientiane"}},{"type":"Point","coordinates":[179.12,-8.3],"id":"TV","properties":{"country":"Tuvalu","city":"Funafuti","tld":"tv","iso3":"TUV","iso2":"TV","name":"Funafuti"}},{"type":"Point","coordinates":[121.3,25.03],"id":"TW","properties":{"country":"Taiwan","city":"Taipei","tld":"tw","iso3":"TWN","iso2":"TW","name":"Taipei"}},{"type":"Point","coordinates":[-61.31,10.39],"id":"TT","properties":{"country":"Trinidad and Tobago","city":"Port-of-Spain","tld":"tt","iso3":"TTO","iso2":"TT","name":"Port-of-Spain"}},{"type":"Point","coordinates":[32.52,39.56],"id":"TR","properties":{"country":"Turkey","city":"Ankara","tld":"tr","iso3":"TUR","iso2":"TR","name":"Ankara"}},{"type":"Point","coordinates":[79.51,6.56],"id":"LK","properties":{"country":"Sri Lanka","city":"Colombo","tld":"lk","iso3":"LKA","iso2":"LK","name":"Colombo"}},{"type":"Point","coordinates":[9.31,47.08],"id":"LI","properties":{"country":"Liechtenstein","city":"Vaduz","tld":"li","iso3":"LIE","iso2":"LI","name":"Vaduz"}},{"type":"Point","coordinates":[24.06,56.57],"id":"LV","properties":{"country":"Latvia","city":"Riga","tld":"lv","iso3":"LVA","iso2":"LV","name":"Riga"}},{"type":"Point","coordinates":[-175.12,-21.08],"id":"TO","properties":{"country":"Tonga","city":"Nuku'alofa","tld":"to","iso3":"TON","iso2":"TO","name":"Nuku'alofa"}},{"type":"Point","coordinates":[25.19,54.41],"id":"LT","properties":{"country":"Lithuania","city":"Vilnius","tld":"lt","iso3":"LTU","iso2":"LT","name":"Vilnius"}},{"type":"Point","coordinates":[6.07,49.36],"id":"LU","properties":{"country":"Luxembourg","city":"Luxembourg","tld":"lu","iso3":"LUX","iso2":"LU","name":"Luxembourg"}},{"type":"Point","coordinates":[-10.48,6.18],"id":"LR","properties":{"country":"Liberia","city":"Monrovia","tld":"lr","iso3":"LBR","iso2":"LR","name":"Monrovia"}},{"type":"Point","coordinates":[27.29,-29.19],"id":"LS","properties":{"country":"Lesotho","city":"Maseru","tld":"ls","iso3":"LSO","iso2":"LS","name":"Maseru"}},{"type":"Point","coordinates":[100.31,13.45],"id":"TH","properties":{"country":"Thailand","city":"Bangkok","tld":"th","iso3":"THA","iso2":"TH","name":"Bangkok"}},{"type":"Point","coordinates":[77.32,-37.5],"id":"TF","properties":{"country":"French Southern Territories","tld":"tf","iso3":"ATF","iso2":"TF"}},{"type":"Point","coordinates":[1.13,6.08],"id":"TG","properties":{"country":"Togo","city":"Lome","tld":"tg","iso3":"TGO","iso2":"TG","name":"Lome"}},{"type":"Point","coordinates":[15.02,12.06],"id":"TD","properties":{"country":"Chad","city":"N'Djamena","tld":"td","iso3":"TCD","iso2":"TD","name":"N'Djamena"}},{"type":"Point","coordinates":[-71.08,21.28],"id":"TC","properties":{"country":"Turks and Caicos Islands","city":"Grand Turk","tld":"tc","iso3":"TCA","iso2":"TC","name":"Grand Turk"}},{"type":"Point","coordinates":[13.1,32.53],"id":"LY","properties":{"country":"Libya","city":"Tripoli","tld":"ly","iso3":"LBY","iso2":"LY","name":"Tripoli"}},{"type":"Point","coordinates":[12.27,41.54],"id":"VA","properties":{"country":"Holy See","city":"Vatican City","tld":"va","iso3":"VAT","iso2":"VA","name":"Vatican City"}},{"type":"Point","coordinates":[-61.14,13.09],"id":"VC","properties":{"country":"Saint Vincent and the Grenadines","city":"Kingstown","tld":"vc","iso3":"VCT","iso2":"VC","name":"Kingstown"}},{"type":"Point","coordinates":[54.22,24.28],"id":"AE","properties":{"country":"United Arab Emirates","city":"Abu Dhabi","tld":"ae","iso3":"ARE","iso2":"AE","name":"Abu Dhabi"}},{"type":"Point","coordinates":[1.31,42.3],"id":"AD","properties":{"country":"Andorra","city":"Andorra la Vella","tld":"ad","iso3":"AND","iso2":"AD","name":"Andorra la Vella"}},{"type":"Point","coordinates":[-61.51,17.07],"id":"AG","properties":{"country":"Antigua and Barbuda","city":"Saint John's","tld":"ag","iso3":"ATG","iso2":"AG","name":"Saint John's"}},{"type":"Point","coordinates":[69.11,34.31],"id":"AF","properties":{"country":"Afghanistan","city":"Kabul","tld":"af","iso3":"AFG","iso2":"AF","name":"Kabul"}},{"type":"Point","coordinates":[-63.03,18.13],"id":"AI","properties":{"country":"Anguilla","city":"The Valley","tld":"ai","iso3":"AIA","iso2":"AI","name":"The Valley"}},{"type":"Point","coordinates":[-64.56,18.21],"id":"VI","properties":{"country":"Virgin Islands","city":"Charlotte Amalie","tld":"vi","iso3":"VIR","iso2":"VI","name":"Charlotte Amalie"}},{"type":"Point","coordinates":[-21.57,64.09],"id":"IS","properties":{"country":"Iceland","city":"Reykjavik","tld":"is","iso3":"ISL","iso2":"IS","name":"Reykjavik"}},{"type":"Point","coordinates":[51.25,35.4],"id":"IR","properties":{"country":"Iran","city":"Tehran","tld":"ir","iso3":"IRN","iso2":"IR","name":"Tehran"}},{"type":"Point","coordinates":[44.3,40.1],"id":"AM","properties":{"country":"Armenia","city":"Yerevan","tld":"am","iso3":"ARM","iso2":"AM","name":"Yerevan"}},{"type":"Point","coordinates":[19.49,41.19],"id":"AL","properties":{"country":"Albania","city":"Tirana","tld":"al","iso3":"ALB","iso2":"AL","name":"Tirana"}},{"type":"Point","coordinates":[13.14,-8.5],"id":"AO","properties":{"country":"Angola","city":"Luanda","tld":"ao","iso3":"AGO","iso2":"AO","name":"Luanda"}},{"type":"Point","coordinates":[-68.56,12.06],"id":"AN","properties":{"country":"Netherlands Antilles","city":"Willemstad","tld":"an","iso3":"ANT","iso2":"AN","name":"Willemstad"}},{"type":"Point","coordinates":[0,-90],"id":"AQ","properties":{"country":"Antarctica","tld":"aq","iso3":"ATA","iso2":"AQ"}},{"type":"Point","coordinates":[0,0],"id":"AP","properties":{"country":"Asia &amp; Pacific","tld":"asia","iso3":"N/A","iso2":"AP"}},{"type":"Point","coordinates":[-170.42,-14.16],"id":"AS","properties":{"country":"American Samoa","city":"Pago Pago","tld":"as","iso3":"ASM","iso2":"AS","name":"Pago Pago"}},{"type":"Point","coordinates":[-58.4,-34.36],"id":"AR","properties":{"country":"Argentina","city":"Buenos Aires","tld":"ar","iso3":"ARG","iso2":"AR","name":"Buenos Aires"}},{"type":"Point","coordinates":[149.13,-35.17],"id":"AU","properties":{"country":"Australia","city":"Canberra","tld":"au","iso3":"AUS","iso2":"AU","name":"Canberra"}},{"type":"Point","coordinates":[16.22,48.12],"id":"AT","properties":{"country":"Austria","city":"Vienna","tld":"at","iso3":"AUT","iso2":"AT","name":"Vienna"}},{"type":"Point","coordinates":[-70.02,12.31],"id":"AW","properties":{"country":"Aruba","city":"Oranjestad","tld":"aw","iso3":"ABW","iso2":"AW","name":"Oranjestad"}},{"type":"Point","coordinates":[77.12,28.36],"id":"IN","properties":{"country":"India","city":"New Delhi","tld":"in","iso3":"IND","iso2":"IN","name":"New Delhi"}},{"type":"Point","coordinates":[39.17,-6.48],"id":"TZ","properties":{"country":"Tanzania","city":"Dar es Salaam","tld":"tz","iso3":"TZA","iso2":"TZ","name":"Dar es Salaam"}},{"type":"Point","coordinates":[49.52,40.23],"id":"AZ","properties":{"country":"Azerbaijan","city":"Baku","tld":"az","iso3":"AZE","iso2":"AZ","name":"Baku"}},{"type":"Point","coordinates":[-6.14,53.19],"id":"IE","properties":{"country":"Ireland","city":"Dublin","tld":"ie","iso3":"IRL","iso2":"IE","name":"Dublin"}},{"type":"Point","coordinates":[106.49,-6.1],"id":"ID","properties":{"country":"Indonesia","city":"Jakarta","tld":"id","iso3":"IDN","iso2":"ID","name":"Jakarta"}},{"type":"Point","coordinates":[30.554,50.441],"id":"UA","properties":{"country":"Ukraine","city":"Kiew","tld":"ua","iso3":"UKR","iso2":"UA","name":"Kiew"}},{"type":"Point","coordinates":[51.32,25.17],"id":"QA","properties":{"country":"Qatar","city":"Doha","tld":"qa","iso3":"QAT","iso2":"QA","name":"Doha"}},{"type":"Point","coordinates":[32.35,-25.57],"id":"MZ","properties":{"country":"Mozambique","city":"Maputo","tld":"mz","iso3":"MOZ","iso2":"MZ","name":"Maputo"}}]}},"arcs":[],"bbox":[-175.12,-90,179.12,78.13]}